{
  "type": "FeatureCollection",
  "features": [
    {
      "type": "Feature",
      "geometry": {
        "type": "Point",
        "coordinates": [
          139.71473745089008,
          35.52366886757586
        ]
      },
      "properties": {
        "name": "大島保育園",
        "link": "http://www.city.kawasaki.jp/450/page/0000031349.html",
        "address": "川崎区大島4-17-2（川崎区保育・子育て総合支援センター内）",
        "postcode": "210-0834",
        "phone": "044-222-7252"
      }
    },
    {
      "type": "Feature",
      "geometry": {
        "type": "Point",
        "coordinates": [
          139.70172682453094,
          35.53323684338214
        ]
      },
      "properties": {
        "name": "川崎乳児保育所",
        "link": "http://www.city.kawasaki.jp/450/page/0000031390.html",
        "address": "川崎区本町1-1-1",
        "postcode": "210-0001",
        "phone": "044-222-2171"
      }
    },
    {
      "type": "Feature",
      "geometry": {
        "type": "Point",
        "coordinates": [
          139.70178315092943,
          35.5332062853063
        ]
      },
      "properties": {
        "name": "夜間保育所あいいく",
        "link": "http://www.city.kawasaki.jp/450/page/0000031402.html",
        "address": "川崎区本町1-1-1",
        "postcode": "210-0001",
        "phone": "044-222-2171"
      }
    },
    {
      "type": "Feature",
      "geometry": {
        "type": "Point",
        "coordinates": [
          139.69844792394082,
          35.52729376050664
        ]
      },
      "properties": {
        "name": "アスク川崎東口保育園",
        "link": "http://www.city.kawasaki.jp/450/page/0000031413.html",
        "address": "川崎区小川町13-9",
        "postcode": "210-0023",
        "phone": "044-233-5030"
      }
    },
    {
      "type": "Feature",
      "geometry": {
        "type": "Point",
        "coordinates": [
          139.70894780000003,
          35.5303752
        ]
      },
      "properties": {
        "name": "のぞみ保育園",
        "link": "http://www.city.kawasaki.jp/450/page/0000031431.html",
        "address": "川崎区富士見1-6-10",
        "postcode": "210-0011",
        "phone": "044-223-2229"
      }
    },
    {
      "type": "Feature",
      "geometry": {
        "type": "Point",
        "coordinates": [
          139.69521419755128,
          35.52413079523345
        ]
      },
      "properties": {
        "name": "ゆめいく日進町保育園",
        "link": "http://www.city.kawasaki.jp/450/page/0000031441.html",
        "address": "川崎区日進町20-3",
        "postcode": "210-0024",
        "phone": "044-221-7035"
      }
    },
    {
      "type": "Feature",
      "geometry": {
        "type": "Point",
        "coordinates": [
          139.69619761533582,
          35.5241224998337
        ]
      },
      "properties": {
        "name": "あすいく保育園",
        "link": "http://www.city.kawasaki.jp/450/page/0000031525.html",
        "address": "川崎区日進町22-14",
        "postcode": "210-0024",
        "phone": "044-221-1015"
      }
    },
    {
      "type": "Feature",
      "geometry": {
        "type": "Point",
        "coordinates": [
          139.69681953861735,
          35.50697755734212
        ]
      },
      "properties": {
        "name": "京町いづみ保育園",
        "link": "http://www.city.kawasaki.jp/450/page/0000031537.html",
        "address": "川崎区京町3-26-1",
        "postcode": "210-0848",
        "phone": "044-322-3811"
      }
    },
    {
      "type": "Feature",
      "geometry": {
        "type": "Point",
        "coordinates": [
          139.69708779999996,
          35.52665640000001
        ]
      },
      "properties": {
        "name": "川崎おおぞら保育園",
        "link": "http://www.city.kawasaki.jp/450/page/0000031545.html",
        "address": "川崎区小川町11-9　大三コーポ1階",
        "postcode": "210-0023",
        "phone": "044-200-9481"
      }
    },
    {
      "type": "Feature",
      "geometry": {
        "type": "Point",
        "coordinates": [
          139.70370660000003,
          35.5296532
        ]
      },
      "properties": {
        "name": "レイモンド川崎保育園",
        "link": "http://www.city.kawasaki.jp/450/page/0000031552.html",
        "address": "川崎区東田町8　パレールビル3階",
        "postcode": "210-0005",
        "phone": "044-201-1313"
      }
    },
    {
      "type": "Feature",
      "geometry": {
        "type": "Point",
        "coordinates": [
          139.6950429987085,
          35.52726287564929
        ]
      },
      "properties": {
        "name": "川崎もりのこ保育園",
        "link": "http://www.city.kawasaki.jp/450/page/0000031556.html",
        "address": "川崎区日進町1-68 サンスクエア川崎8号棟 2階",
        "postcode": "210-0024",
        "phone": "044-246-1815"
      }
    },
    {
      "type": "Feature",
      "geometry": {
        "type": "Point",
        "coordinates": [
          139.71913570000004,
          35.530714
        ]
      },
      "properties": {
        "name": "藤崎保育園",
        "link": "http://www.city.kawasaki.jp/450/page/0000031573.html",
        "address": "川崎区藤崎1-7-1",
        "postcode": "210-0804",
        "phone": "044-211-1306"
      }
    },
    {
      "type": "Feature",
      "geometry": {
        "type": "Point",
        "coordinates": [
          139.73914310489351,
          35.53266710000006
        ]
      },
      "properties": {
        "name": "大師保育園",
        "link": "http://www.city.kawasaki.jp/450/page/0000031637.html",
        "address": "川崎区出来野1-17",
        "postcode": "210-0825",
        "phone": "044-266-7939"
      }
    },
    {
      "type": "Feature",
      "geometry": {
        "type": "Point",
        "coordinates": [
          139.72263897924645,
          35.52754991729322
        ]
      },
      "properties": {
        "name": "かわなかじま保育園",
        "link": "http://www.city.kawasaki.jp/450/page/0000031642.html",
        "address": "川崎区藤崎2-19-2",
        "postcode": "210-0804",
        "phone": "044-246-7510"
      }
    },
    {
      "type": "Feature",
      "geometry": {
        "type": "Point",
        "coordinates": [
          139.73298274418025,
          35.53641365693293
        ]
      },
      "properties": {
        "name": "東門前保育園",
        "link": "http://www.city.kawasaki.jp/450/page/0000031652.html",
        "address": "川崎区東門前1-8-2",
        "postcode": "210-0812",
        "phone": "044-266-8984"
      }
    },
    {
      "type": "Feature",
      "geometry": {
        "type": "Point",
        "coordinates": [
          139.73218364784472,
          35.53929816629342
        ]
      },
      "properties": {
        "name": "中瀬新生保育園",
        "link": "http://www.city.kawasaki.jp/450/page/0000031660.html",
        "address": "川崎区中瀬3-20-16",
        "postcode": "210-0818",
        "phone": "044-280-1017"
      }
    },
    {
      "type": "Feature",
      "geometry": {
        "type": "Point",
        "coordinates": [
          139.73332370000003,
          35.5271093
        ]
      },
      "properties": {
        "name": "よつば保育園",
        "link": "http://www.city.kawasaki.jp/450/page/0000031670.html",
        "address": "川崎区四谷上町14-8",
        "postcode": "210-0828",
        "phone": "044-288-4289"
      }
    },
    {
      "type": "Feature",
      "geometry": {
        "type": "Point",
        "coordinates": [
          139.730957,
          35.5350999
        ]
      },
      "properties": {
        "name": "アスク東門前保育園",
        "link": "http://www.city.kawasaki.jp/450/page/0000031682.html",
        "address": "川崎区大師本町9-11-3F",
        "postcode": "210-0817",
        "phone": "044-270-3412"
      }
    },
    {
      "type": "Feature",
      "geometry": {
        "type": "Point",
        "coordinates": [
          139.70691239999996,
          35.5115667
        ]
      },
      "properties": {
        "name": "東小田保育園",
        "link": "http://www.city.kawasaki.jp/450/page/0000031702.html",
        "address": "川崎区小田5-14-1",
        "postcode": "210-0846",
        "phone": "044-355-6620"
      }
    },
    {
      "type": "Feature",
      "geometry": {
        "type": "Point",
        "coordinates": [
          139.72783271963243,
          35.52209662221351
        ]
      },
      "properties": {
        "name": "聖美保育園",
        "link": "http://www.city.kawasaki.jp/450/page/0000031708.html",
        "address": "川崎区桜本2-41-11",
        "postcode": "210-0833",
        "phone": "044-266-7227"
      }
    },
    {
      "type": "Feature",
      "geometry": {
        "type": "Point",
        "coordinates": [
          139.7196561748635,
          35.51477426968725
        ]
      },
      "properties": {
        "name": "あいせん保育園",
        "link": "http://www.city.kawasaki.jp/450/page/0000031714.html",
        "address": "川崎区浜町2-22-16",
        "postcode": "210-0851",
        "phone": "044-344-5365"
      }
    },
    {
      "type": "Feature",
      "geometry": {
        "type": "Point",
        "coordinates": [
          139.72207706072203,
          35.52096890129023
        ]
      },
      "properties": {
        "name": "桜本保育園",
        "link": "http://www.city.kawasaki.jp/450/page/0000031718.html",
        "address": "川崎区桜本1-9-6",
        "postcode": "210-0833",
        "phone": "044-288-2545"
      }
    },
    {
      "type": "Feature",
      "geometry": {
        "type": "Point",
        "coordinates": [
          139.71235357113866,
          35.52493125350098
        ]
      },
      "properties": {
        "name": "西大島ルーテル保育園",
        "link": "http://www.city.kawasaki.jp/450/page/0000031727.html",
        "address": "川崎区大島1-24-12",
        "postcode": "210-0834",
        "phone": "044-280-6222"
      }
    },
    {
      "type": "Feature",
      "geometry": {
        "type": "Point",
        "coordinates": [
          139.71468674958916,
          35.52872093251001
        ]
      },
      "properties": {
        "name": "ランゲージ・ハウスNakajima保育園",
        "link": "http://www.city.kawasaki.jp/450/page/0000119007.html",
        "address": "川崎区中島2丁目1番8号",
        "postcode": "210-0806",
        "phone": "044-201-9282"
      }
    },
    {
      "type": "Feature",
      "geometry": {
        "type": "Point",
        "coordinates": [
          139.72598823726403,
          35.533536148630596
        ]
      },
      "properties": {
        "name": "Nest川崎大師保育園",
        "link": "http://www.city.kawasaki.jp/450/page/0000118749.html",
        "address": "川崎区大師駅前1-2-15",
        "postcode": "210-0802",
        "phone": "044-266-1220"
      }
    },
    {
      "type": "Feature",
      "geometry": {
        "type": "Point",
        "coordinates": [
          139.7280136923162,
          35.53341100004733
        ]
      },
      "properties": {
        "name": "大師駅前ひよこ保育園",
        "link": "http://www.city.kawasaki.jp/450/page/0000064758.html",
        "address": "川崎区川中島 1丁目21－4",
        "postcode": "210-0803",
        "phone": "044-266-1450"
      }
    },
    {
      "type": "Feature",
      "geometry": {
        "type": "Point",
        "coordinates": [
          139.72611966552424,
          35.527457054445144
        ]
      },
      "properties": {
        "name": "マジオたんぽぽ保育園観音",
        "link": "http://www.city.kawasaki.jp/450/page/0000118623.html",
        "address": "川崎区観音1丁目8番20号",
        "postcode": "210-0831",
        "phone": "044-589-4402"
      }
    },
    {
      "type": "Feature",
      "geometry": {
        "type": "Point",
        "coordinates": [
          139.7004505667255,
          35.53387103275785
        ]
      },
      "properties": {
        "name": "ルミナ保育園川崎",
        "link": "http://www.city.kawasaki.jp/450/page/0000109872.html",
        "address": "川崎区駅前本町22-9",
        "postcode": "210-0007",
        "phone": "044-201-8915"
      }
    },
    {
      "type": "Feature",
      "geometry": {
        "type": "Point",
        "coordinates": [
          139.7299964633427,
          35.53282606986415
        ]
      },
      "properties": {
        "name": "だるま国際ころころ園",
        "link": "http://www.city.kawasaki.jp/450/page/0000118606.html",
        "address": "川崎区大師町3-7",
        "postcode": "210-0816",
        "phone": "044-288-0116"
      }
    },
    {
      "type": "Feature",
      "geometry": {
        "type": "Point",
        "coordinates": [
          139.7068251387887,
          35.516901494846714
        ]
      },
      "properties": {
        "name": "川崎コスモス保育園",
        "link": "http://www.city.kawasaki.jp/450/page/0000118268.html",
        "address": "川崎区渡田東町7-9",
        "postcode": "210-0842",
        "phone": "044-276-9956"
      }
    },
    {
      "type": "Feature",
      "geometry": {
        "type": "Point",
        "coordinates": [
          139.7029645423289,
          35.51254367285801
        ]
      },
      "properties": {
        "name": "小田さくら保育園",
        "link": "http://www.city.kawasaki.jp/450/page/0000100116.html",
        "address": "神奈川県川崎市川崎区小田3-17-3",
        "postcode": "210-0846",
        "phone": "044-280-7922"
      }
    },
    {
      "type": "Feature",
      "geometry": {
        "type": "Point",
        "coordinates": [
          139.7384621000018,
          35.53469344680469
        ]
      },
      "properties": {
        "name": "出来野ルーテル保育園",
        "link": "http://www.city.kawasaki.jp/450/page/0000050740.html",
        "address": "川崎区出来野6-7",
        "postcode": "210-0825",
        "phone": "044-201-1146"
      }
    },
    {
      "type": "Feature",
      "geometry": {
        "type": "Point",
        "coordinates": [
          139.73764106785046,
          35.533121850601034
        ]
      },
      "properties": {
        "name": "つめくさ保育園",
        "link": "http://www.city.kawasaki.jp/450/page/0000109686.html",
        "address": "川崎区昭和1-5-8",
        "postcode": "210-0813",
        "phone": "044-201-9789"
      }
    },
    {
      "type": "Feature",
      "geometry": {
        "type": "Point",
        "coordinates": [
          139.7060590982437,
          35.51452215963463
        ]
      },
      "properties": {
        "name": "ベネッセ川崎新町保育園",
        "link": "http://www.city.kawasaki.jp/450/page/0000068921.html",
        "address": "川崎区小田栄2-3-2",
        "postcode": "210-0843",
        "phone": "044-329-1281"
      }
    },
    {
      "type": "Feature",
      "geometry": {
        "type": "Point",
        "coordinates": [
          139.70089443682096,
          35.53233695136892
        ]
      },
      "properties": {
        "name": "京急キッズランド京急川崎保育園",
        "link": "http://www.city.kawasaki.jp/450/page/0000080818.html",
        "address": "川崎区砂子1－3－1　京急ショッピングプラザウィング川崎5階",
        "postcode": "210-0006",
        "phone": "044-245-5802"
      }
    },
    {
      "type": "Feature",
      "geometry": {
        "type": "Point",
        "coordinates": [
          139.73957224889966,
          35.5360095845591
        ]
      },
      "properties": {
        "name": "川崎ふたば保育園",
        "link": "http://www.city.kawasaki.jp/450/page/0000081128.html",
        "address": "川崎区大師河原2－2－2",
        "postcode": "210-0811",
        "phone": "044-200-4113"
      }
    },
    {
      "type": "Feature",
      "geometry": {
        "type": "Point",
        "coordinates": [
          139.71653517882257,
          35.52523481509588
        ]
      },
      "properties": {
        "name": "京進のほいくえんHOPPA大島五丁目",
        "link": "http://www.city.kawasaki.jp/450/page/0000089358.html",
        "address": "川崎市川崎区大島5丁目11番13号ラポルテ511　2階",
        "postcode": "210-0834",
        "phone": "044-589-8704"
      }
    },
    {
      "type": "Feature",
      "geometry": {
        "type": "Point",
        "coordinates": [
          139.69732205707666,
          35.51449606857278
        ]
      },
      "properties": {
        "name": "パピー保育園",
        "link": "http://www.city.kawasaki.jp/450/page/0000079127.html",
        "address": "神奈川県川崎市川崎区小田2-2-3",
        "postcode": "210-0846",
        "phone": "044-201-7160"
      }
    },
    {
      "type": "Feature",
      "geometry": {
        "type": "Point",
        "coordinates": [
          139.72623467445374,
          35.52560785196652
        ]
      },
      "properties": {
        "name": "かんのん町保育園",
        "link": "http://www.city.kawasaki.jp/450/page/0000060551.html",
        "address": "川崎市川崎区観音1-10-3",
        "postcode": "210-0831",
        "phone": "044-280-6226"
      }
    },
    {
      "type": "Feature",
      "geometry": {
        "type": "Point",
        "coordinates": [
          139.74268198013306,
          35.53116103786243
        ]
      },
      "properties": {
        "name": "だいしの里保育園",
        "link": "http://www.city.kawasaki.jp/450/page/0000050744.html",
        "address": "川崎区日ノ出1-16-11",
        "postcode": "210-0824",
        "phone": "044-589-5281"
      }
    },
    {
      "type": "Feature",
      "geometry": {
        "type": "Point",
        "coordinates": [
          139.71219062805176,
          35.535351867074844
        ]
      },
      "properties": {
        "name": "京急キッズランド港町駅前保育園",
        "link": "http://www.city.kawasaki.jp/450/page/0000048905.html",
        "address": "川崎区港町5-4",
        "postcode": "210-0807",
        "phone": "044-245-0231"
      }
    },
    {
      "type": "Feature",
      "geometry": {
        "type": "Point",
        "coordinates": [
          139.6959337592125,
          35.516887330420865
        ]
      },
      "properties": {
        "name": "若草保育園　京町",
        "link": "http://www.city.kawasaki.jp/450/page/0000080834.html",
        "address": "川崎区渡田山王町20−35 2階",
        "postcode": "210-0845",
        "phone": "044-329-1180"
      }
    },
    {
      "type": "Feature",
      "geometry": {
        "type": "Point",
        "coordinates": [
          139.71937894821167,
          35.535020101075006
        ]
      },
      "properties": {
        "name": "キディ鈴木町・川崎",
        "link": "http://www.city.kawasaki.jp/450/page/0000069024.html",
        "address": "川崎区鈴木町3-2",
        "postcode": "210-0801",
        "phone": "044-246-0400"
      }
    },
    {
      "type": "Feature",
      "geometry": {
        "type": "Point",
        "coordinates": [
          139.7093152999878,
          35.52412012657395
        ]
      },
      "properties": {
        "name": "境町パイナップル保育園",
        "link": "http://www.city.kawasaki.jp/450/page/0000081290.html",
        "address": "川崎市川崎区境町11番9",
        "postcode": "210-0838",
        "phone": "044-222-8686"
      }
    },
    {
      "type": "Feature",
      "geometry": {
        "type": "Point",
        "coordinates": [
          139.70328569412231,
          35.5176187977052
        ]
      },
      "properties": {
        "name": "新町しほかぜ保育園",
        "link": "http://www.city.kawasaki.jp/450/page/0000079117.html",
        "address": "川崎区渡田4-9-4",
        "postcode": "210-0837",
        "phone": "044-223-8818"
      }
    },
    {
      "type": "Feature",
      "geometry": {
        "type": "Point",
        "coordinates": [
          139.7306951880455,
          35.5373226816165
        ]
      },
      "properties": {
        "name": "ココファン・ナーサリー川崎大師",
        "link": "http://www.city.kawasaki.jp/450/page/0000079487.html",
        "address": "川崎区中瀬3-14-3",
        "postcode": "210-0818",
        "phone": "044-299-2751"
      }
    },
    {
      "type": "Feature",
      "geometry": {
        "type": "Point",
        "coordinates": [
          139.68011350005207,
          35.54412347099704
        ]
      },
      "properties": {
        "name": "古川保育園",
        "link": "http://www.city.kawasaki.jp/450/page/0000031686.html",
        "address": "幸区塚越2丁目159-28",
        "postcode": "212-0024",
        "phone": "044-522-6301"
      }
    },
    {
      "type": "Feature",
      "geometry": {
        "type": "Point",
        "coordinates": [
          139.66073189999997,
          35.5553081
        ]
      },
      "properties": {
        "name": "北加瀬保育園",
        "link": "http://www.city.kawasaki.jp/450/page/0000031701.html",
        "address": "幸区北加瀬3-19-1",
        "postcode": "212-0057",
        "phone": "044-411-3047"
      }
    },
    {
      "type": "Feature",
      "geometry": {
        "type": "Point",
        "coordinates": [
          139.69265719999999,
          35.5409371
        ]
      },
      "properties": {
        "name": "河原町保育園",
        "link": "http://www.city.kawasaki.jp/450/page/0000031733.html",
        "address": "幸区河原町1",
        "postcode": "212-0007",
        "phone": "044-522-6650"
      }
    },
    {
      "type": "Feature",
      "geometry": {
        "type": "Point",
        "coordinates": [
          139.6648874,
          35.545132
        ]
      },
      "properties": {
        "name": "夢見ヶ崎保育園",
        "link": "http://www.city.kawasaki.jp/450/page/0000031732.html",
        "address": "幸区南加瀬3-4-8",
        "postcode": "212-0055",
        "phone": "044-588-4130"
      }
    },
    {
      "type": "Feature",
      "geometry": {
        "type": "Point",
        "coordinates": [
          139.6934705398895,
          35.53036806739482
        ]
      },
      "properties": {
        "name": "YMCAかわさき保育園",
        "link": "http://www.city.kawasaki.jp/450/page/0000031743.html",
        "address": "幸区大宮町26-3　アーベインビオ川崎3号棟102",
        "postcode": "212-0014",
        "phone": "044-520-1825"
      }
    },
    {
      "type": "Feature",
      "geometry": {
        "type": "Point",
        "coordinates": [
          139.69455109140083,
          35.53137109679558
        ]
      },
      "properties": {
        "name": "アスク川崎西口保育園",
        "link": "http://www.city.kawasaki.jp/450/page/0000031734.html",
        "address": "幸区大宮町1310　ミューザ川崎1階",
        "postcode": "212-0014",
        "phone": "044-520-8025"
      }
    },
    {
      "type": "Feature",
      "geometry": {
        "type": "Point",
        "coordinates": [
          139.66878514603977,
          35.54898170063675
        ]
      },
      "properties": {
        "name": "どりーむ保育園",
        "link": "http://www.city.kawasaki.jp/450/page/0000031720.html",
        "address": "幸区北加瀬1-31-5",
        "postcode": "212-0057",
        "phone": "044-580-3020"
      }
    },
    {
      "type": "Feature",
      "geometry": {
        "type": "Point",
        "coordinates": [
          139.689395991391,
          35.53404296041882
        ]
      },
      "properties": {
        "name": "保育園フェリチッタ",
        "link": "http://www.city.kawasaki.jp/450/page/0000031712.html",
        "address": "幸区南幸町2-76",
        "postcode": "212-0016",
        "phone": "044-544-5033"
      }
    },
    {
      "type": "Feature",
      "geometry": {
        "type": "Point",
        "coordinates": [
          139.68641060000004,
          35.5413682
        ]
      },
      "properties": {
        "name": "つくし保育園",
        "link": "http://www.city.kawasaki.jp/450/page/0000031703.html",
        "address": "幸区戸手本町2-420-1",
        "postcode": "212-0023",
        "phone": "044-223-7531"
      }
    },
    {
      "type": "Feature",
      "geometry": {
        "type": "Point",
        "coordinates": [
          139.66894799174517,
          35.545254636048945
        ]
      },
      "properties": {
        "name": "にじいろ保育園新川崎",
        "link": "http://www.city.kawasaki.jp/450/page/0000031690.html",
        "address": "幸区小倉1-4-24",
        "postcode": "212-0054",
        "phone": "044-599-6790"
      }
    },
    {
      "type": "Feature",
      "geometry": {
        "type": "Point",
        "coordinates": [
          139.6747765509262,
          35.553861357803754
        ]
      },
      "properties": {
        "name": "ふくじゅ保育園",
        "link": "http://www.city.kawasaki.jp/450/page/0000031671.html",
        "address": "幸区鹿島田1-21-8",
        "postcode": "212-0058",
        "phone": "044-201-8080"
      }
    },
    {
      "type": "Feature",
      "geometry": {
        "type": "Point",
        "coordinates": [
          139.66983116809024,
          35.55222124401819
        ]
      },
      "properties": {
        "name": "新川崎もりのこ保育園",
        "link": "http://www.city.kawasaki.jp/450/page/0000031584.html",
        "address": "幸区新川崎3-1",
        "postcode": "212-0032",
        "phone": "044-599-3808"
      }
    },
    {
      "type": "Feature",
      "geometry": {
        "type": "Point",
        "coordinates": [
          139.68566369999996,
          35.530717
        ]
      },
      "properties": {
        "name": "小学館アカデミー南さいわい町保育園",
        "link": "http://www.city.kawasaki.jp/450/page/0000031569.html",
        "address": "幸区南幸町3-97　リバーセンタービル2階",
        "postcode": "212-0016",
        "phone": "044-542-4151"
      }
    },
    {
      "type": "Feature",
      "geometry": {
        "type": "Point",
        "coordinates": [
          139.6823312638262,
          35.54895754812847
        ]
      },
      "properties": {
        "name": "鹿島田もりのこ保育園",
        "link": "http://www.city.kawasaki.jp/450/page/0000031500.html",
        "address": "幸区下平間290",
        "postcode": "212-0053",
        "phone": "044-522-3565"
      }
    },
    {
      "type": "Feature",
      "geometry": {
        "type": "Point",
        "coordinates": [
          139.67505488835644,
          35.54595434992726
        ]
      },
      "properties": {
        "name": "どりーむ東小倉保育園",
        "link": "http://www.city.kawasaki.jp/450/page/0000031494.html",
        "address": "幸区東小倉2-36",
        "postcode": "212-0033",
        "phone": "044-542-7885"
      }
    },
    {
      "type": "Feature",
      "geometry": {
        "type": "Point",
        "coordinates": [
          139.6929312870185,
          35.54423911521549
        ]
      },
      "properties": {
        "name": "かわの風保育園",
        "link": "http://www.city.kawasaki.jp/450/page/0000031483.html",
        "address": "幸区戸手2-12-10",
        "postcode": "212-0005",
        "phone": "044-542-8133"
      }
    },
    {
      "type": "Feature",
      "geometry": {
        "type": "Point",
        "coordinates": [
          139.6923257230644,
          35.52817498995994
        ]
      },
      "properties": {
        "name": "ゲートタワーローズ保育園",
        "link": "http://www.city.kawasaki.jp/450/page/0000036108.html",
        "address": "幸区大宮町31-1　川崎ゲートタワー1階",
        "postcode": "212-0014",
        "phone": "044-589-3552"
      }
    },
    {
      "type": "Feature",
      "geometry": {
        "type": "Point",
        "coordinates": [
          139.66934441364478,
          35.538580048972236
        ]
      },
      "properties": {
        "name": "おぐら保育園",
        "link": "http://www.city.kawasaki.jp/450/page/0000109474.html",
        "address": "神奈川県川崎市幸区小倉4-6-23",
        "postcode": "212-0054",
        "phone": "044-223-8012"
      }
    },
    {
      "type": "Feature",
      "geometry": {
        "type": "Point",
        "coordinates": [
          139.664801478284,
          35.54410696596988
        ]
      },
      "properties": {
        "name": "みなみかせ保育園",
        "link": "http://www.city.kawasaki.jp/450/page/0000118922.html",
        "address": "幸区南加瀬3-12-8",
        "postcode": "212-0055",
        "phone": "044-201-8042"
      }
    },
    {
      "type": "Feature",
      "geometry": {
        "type": "Point",
        "coordinates": [
          139.67155721587088,
          35.542568076267465
        ]
      },
      "properties": {
        "name": "まなびの森保育園矢向",
        "link": "http://www.city.kawasaki.jp/450/page/0000089119.html",
        "address": "幸区小倉3-1-15",
        "postcode": "212-0054",
        "phone": "044-588-0180"
      }
    },
    {
      "type": "Feature",
      "geometry": {
        "type": "Point",
        "coordinates": [
          139.66409966213791,
          35.55219332615145
        ]
      },
      "properties": {
        "name": "新川崎えほんの森保育園",
        "link": "http://www.city.kawasaki.jp/450/page/0000118816.html",
        "address": "幸区北加瀬1-10-1",
        "postcode": "212-0057",
        "phone": "044-280-9450"
      }
    },
    {
      "type": "Feature",
      "geometry": {
        "type": "Point",
        "coordinates": [
          139.69430670006548,
          35.54001349733919
        ]
      },
      "properties": {
        "name": "みなみがわら保育園",
        "link": "http://www.city.kawasaki.jp/450/page/0000118865.html",
        "address": "幸区河原町1-77",
        "postcode": "212-0007",
        "phone": "044-396-3171"
      }
    },
    {
      "type": "Feature",
      "geometry": {
        "type": "Point",
        "coordinates": [
          139.67261319941142,
          35.53722707704935
        ]
      },
      "properties": {
        "name": "小倉はなかご保育園",
        "link": "http://www.city.kawasaki.jp/450/page/0000059172.html",
        "address": "川崎市幸区小倉4丁目15番8号",
        "postcode": "210-0054",
        "phone": "044-580-1001"
      }
    },
    {
      "type": "Feature",
      "geometry": {
        "type": "Point",
        "coordinates": [
          139.69896187078518,
          35.537657544957305
        ]
      },
      "properties": {
        "name": "キッズガーデン川崎幸町",
        "link": "http://www.city.kawasaki.jp/450/page/0000079025.html",
        "address": "幸区幸町2-593　モリファーストビル6階",
        "postcode": "215-0004",
        "phone": "044-589-6200"
      }
    },
    {
      "type": "Feature",
      "geometry": {
        "type": "Point",
        "coordinates": [
          139.68897100733233,
          35.53438256968717
        ]
      },
      "properties": {
        "name": "保育園アレッタ",
        "link": "http://www.city.kawasaki.jp/450/page/0000089050.html",
        "address": "幸区南幸町3-3",
        "postcode": "212-0016",
        "phone": "044-742-3550"
      }
    },
    {
      "type": "Feature",
      "geometry": {
        "type": "Point",
        "coordinates": [
          139.66653242338313,
          35.545121004258355
        ]
      },
      "properties": {
        "name": "あいみー南加瀬保育園",
        "link": "http://www.city.kawasaki.jp/450/page/0000089078.html",
        "address": "幸区南加瀬3－4－20",
        "postcode": "212-0055",
        "phone": "044-200-4266"
      }
    },
    {
      "type": "Feature",
      "geometry": {
        "type": "Point",
        "coordinates": [
          139.66082585951403,
          35.54840008714128
        ]
      },
      "properties": {
        "name": "ひよし保育園",
        "link": "http://www.city.kawasaki.jp/450/page/0000078437.html",
        "address": "幸区南加瀬2-9-20",
        "postcode": "212-0055",
        "phone": "044-588-3555"
      }
    },
    {
      "type": "Feature",
      "geometry": {
        "type": "Point",
        "coordinates": [
          139.6708154085789,
          35.54298702756015
        ]
      },
      "properties": {
        "name": "プレシャススターズ保育園小倉園",
        "link": "http://www.city.kawasaki.jp/450/page/0000088458.html",
        "address": "幸区小倉3-2-23　セレーヌサクラ1階",
        "postcode": "212-0054",
        "phone": "044-276-8805"
      }
    },
    {
      "type": "Feature",
      "geometry": {
        "type": "Point",
        "coordinates": [
          139.6701597264024,
          35.55077599757346
        ]
      },
      "properties": {
        "name": "マミー保育園新川崎",
        "link": "http://www.city.kawasaki.jp/450/page/0000078386.html",
        "address": "川崎市幸区新川崎5-2　3階",
        "postcode": "212-0032",
        "phone": "044-201-8985"
      }
    },
    {
      "type": "Feature",
      "geometry": {
        "type": "Point",
        "coordinates": [
          139.68114878849255,
          35.554341195754
        ]
      },
      "properties": {
        "name": "Nest鹿島田保育園",
        "link": "http://www.city.kawasaki.jp/450/page/0000118479.html",
        "address": "幸区下平間326-8",
        "postcode": "212-0053",
        "phone": "044-542-6134"
      }
    },
    {
      "type": "Feature",
      "geometry": {
        "type": "Point",
        "coordinates": [
          139.6626318503212,
          35.55249045190133
        ]
      },
      "properties": {
        "name": "第2ひまわりほいくえん",
        "link": "http://www.city.kawasaki.jp/450/page/0000109468.html",
        "address": "神奈川県川崎市幸区北加瀬2-1-24",
        "postcode": "212-0057",
        "phone": "044-280-9500"
      }
    },
    {
      "type": "Feature",
      "geometry": {
        "type": "Point",
        "coordinates": [
          139.6744118048542,
          35.551628352786516
        ]
      },
      "properties": {
        "name": "にじいろ保育園鹿島田",
        "link": "http://www.city.kawasaki.jp/450/page/0000078288.html",
        "address": "神奈川県川崎市幸区鹿島田1-10-22",
        "postcode": "212-0058",
        "phone": "044-200-4615"
      }
    },
    {
      "type": "Feature",
      "geometry": {
        "type": "Point",
        "coordinates": [
          139.68105625908075,
          35.54168089728237
        ]
      },
      "properties": {
        "name": "にじいろ保育園塚越",
        "link": "http://www.city.kawasaki.jp/450/page/0000079391.html",
        "address": "塚越4－345－11",
        "postcode": "212-0024",
        "phone": "044-555-0553"
      }
    },
    {
      "type": "Feature",
      "geometry": {
        "type": "Point",
        "coordinates": [
          139.68487523240728,
          35.54683685998243
        ]
      },
      "properties": {
        "name": "マジオたんぽぽ保育園下平間",
        "link": "http://www.city.kawasaki.jp/450/page/0000097970.html",
        "address": "幸区下平間386-1",
        "postcode": "212-0053",
        "phone": "044-511-8000"
      }
    },
    {
      "type": "Feature",
      "geometry": {
        "type": "Point",
        "coordinates": [
          139.6915887926722,
          35.53351958405589
        ]
      },
      "properties": {
        "name": "保育園リエッタ",
        "link": "http://www.city.kawasaki.jp/450/page/0000079028.html",
        "address": "幸区南幸町2-9　ラゾーナサイドビル2・3階",
        "postcode": "212-0016",
        "phone": "044-541-9885"
      }
    },
    {
      "type": "Feature",
      "geometry": {
        "type": "Point",
        "coordinates": [
          139.66235053343064,
          35.551524695684684
        ]
      },
      "properties": {
        "name": "にじいろ保育園北加瀬",
        "link": "http://www.city.kawasaki.jp/450/page/0000099238.html",
        "address": "北加瀬2－11－4",
        "postcode": "212-0024",
        "phone": "044-589-6003"
      }
    },
    {
      "type": "Feature",
      "geometry": {
        "type": "Point",
        "coordinates": [
          139.68060789697768,
          35.543973572456906
        ]
      },
      "properties": {
        "name": "らいらっく幸保育園",
        "link": "http://www.city.kawasaki.jp/450/page/0000079001.html",
        "address": "幸区塚越2－220－37",
        "postcode": "-",
        "phone": "044-589-8601"
      }
    },
    {
      "type": "Feature",
      "geometry": {
        "type": "Point",
        "coordinates": [
          139.66472119693398,
          35.54701758037789
        ]
      },
      "properties": {
        "name": "日生夢見ヶ崎保育園ひびき",
        "link": "http://www.city.kawasaki.jp/450/page/0000060350.html",
        "address": "幸区南加瀬1－13－5",
        "postcode": "212-0055",
        "phone": "044-200-4612"
      }
    },
    {
      "type": "Feature",
      "geometry": {
        "type": "Point",
        "coordinates": [
          139.67751330122815,
          35.5499211596274
        ]
      },
      "properties": {
        "name": "日生鹿島田保育園ひびき",
        "link": "http://www.city.kawasaki.jp/450/page/0000060553.html",
        "address": "幸区下平間143－16",
        "postcode": "212-0053",
        "phone": "044-280-6121"
      }
    },
    {
      "type": "Feature",
      "geometry": {
        "type": "Point",
        "coordinates": [
          139.69877421855927,
          35.53499609164022
        ]
      },
      "properties": {
        "name": "わらべうた幸町保育園",
        "link": "http://www.city.kawasaki.jp/450/page/0000058869.html",
        "address": "川崎市幸区幸町1-749-2",
        "postcode": "212-0011",
        "phone": "044-511-1277"
      }
    },
    {
      "type": "Feature",
      "geometry": {
        "type": "Point",
        "coordinates": [
          139.69286262989044,
          35.53037425074295
        ]
      },
      "properties": {
        "name": "かわさき大宮町保育園",
        "link": "http://www.city.kawasaki.jp/450/page/0000078405.html",
        "address": "幸区大宮町9-1　ヴィルクレール川崎タワー1階",
        "postcode": "212-0014",
        "phone": "044-520-1070"
      }
    },
    {
      "type": "Feature",
      "geometry": {
        "type": "Point",
        "coordinates": [
          139.6729874610901,
          35.55043703948707
        ]
      },
      "properties": {
        "name": "小学館アカデミーしんかわさき保育園",
        "link": "http://www.city.kawasaki.jp/450/page/0000050734.html",
        "address": "幸区鹿島田1-1-3",
        "postcode": "212-0058",
        "phone": "044-542-3561"
      }
    },
    {
      "type": "Feature",
      "geometry": {
        "type": "Point",
        "coordinates": [
          139.686947644178,
          35.53508108360647
        ]
      },
      "properties": {
        "name": "幸いづみ保育園",
        "link": "http://www.city.kawasaki.jp/450/page/0000078464.html",
        "address": "幸区南幸町3-149-3",
        "postcode": "-",
        "phone": "044-542-5696"
      }
    },
    {
      "type": "Feature",
      "geometry": {
        "type": "Point",
        "coordinates": [
          139.68813531780168,
          35.54815783307393
        ]
      },
      "properties": {
        "name": "小向さくら保育園",
        "link": "http://www.city.kawasaki.jp/450/page/0000078830.html",
        "address": "幸区小向西町3－52－3",
        "postcode": "-",
        "phone": "044-511-6555"
      }
    },
    {
      "type": "Feature",
      "geometry": {
        "type": "Point",
        "coordinates": [
          139.67961305416782,
          35.54748913901161
        ]
      },
      "properties": {
        "name": "らいらっく山吹保育園",
        "link": "http://www.city.kawasaki.jp/450/page/0000089025.html",
        "address": "幸区塚越1丁目60－160",
        "postcode": "212-0024",
        "phone": "044-223-8388"
      }
    },
    {
      "type": "Feature",
      "geometry": {
        "type": "Point",
        "coordinates": [
          139.6888774041104,
          35.53834427959179
        ]
      },
      "properties": {
        "name": "京進のほいくえんHOPPA南河原",
        "link": "http://www.city.kawasaki.jp/450/page/0000089297.html",
        "address": "幸区神明町2-29-6　ウイングルート1階",
        "postcode": "212-0022",
        "phone": "044-276-9507"
      }
    },
    {
      "type": "Feature",
      "geometry": {
        "type": "Point",
        "coordinates": [
          139.672719777001,
          35.55196245430234
        ]
      },
      "properties": {
        "name": "新川崎・学びの保育園",
        "link": "http://www.city.kawasaki.jp/450/page/0000089080.html",
        "address": "幸区鹿島田1-6-5",
        "postcode": "212-0058",
        "phone": "044-201-8340"
      }
    },
    {
      "type": "Feature",
      "geometry": {
        "type": "Point",
        "coordinates": [
          139.6644210223126,
          35.55209810071616
        ]
      },
      "properties": {
        "name": "新川崎みらいのそら保育園",
        "link": "http://www.city.kawasaki.jp/450/page/0000089082.html",
        "address": "幸区北加瀬1－11－4",
        "postcode": "212-0057",
        "phone": "044-589-5588"
      }
    },
    {
      "type": "Feature",
      "geometry": {
        "type": "Point",
        "coordinates": [
          139.68244246881747,
          35.54936407239862
        ]
      },
      "properties": {
        "name": "SPACE　KID保育園",
        "link": "http://www.city.kawasaki.jp/450/page/0000097962.html",
        "address": "幸区下平間259-1",
        "postcode": "212-0053",
        "phone": "044-201-7751"
      }
    },
    {
      "type": "Feature",
      "geometry": {
        "type": "Point",
        "coordinates": [
          139.6825341562473,
          35.55484025824171
        ]
      },
      "properties": {
        "name": "キディ古市場保育園",
        "link": "http://www.city.kawasaki.jp/450/page/0000050731.html",
        "address": "幸区古市場2-97",
        "postcode": "212-0052",
        "phone": "044-542-1711"
      }
    },
    {
      "type": "Feature",
      "geometry": {
        "type": "Point",
        "coordinates": [
          139.67760240000007,
          35.5616457
        ]
      },
      "properties": {
        "name": "平間保育園",
        "link": "http://www.city.kawasaki.jp/450/page/0000031455.html",
        "address": "中原区上平間366",
        "postcode": "211-0013",
        "phone": "044-533-0116"
      }
    },
    {
      "type": "Feature",
      "geometry": {
        "type": "Point",
        "coordinates": [
          139.67760240000007,
          35.5616457
        ]
      },
      "properties": {
        "name": "平間乳児保育園",
        "link": "http://www.city.kawasaki.jp/450/page/0000031280.html",
        "address": "中原区上平間366",
        "postcode": "211-0013",
        "phone": "044-533-0117"
      }
    },
    {
      "type": "Feature",
      "geometry": {
        "type": "Point",
        "coordinates": [
          139.6715193,
          35.5708943
        ]
      },
      "properties": {
        "name": "中丸子保育園",
        "link": "http://www.city.kawasaki.jp/450/page/0000031267.html",
        "address": "中原区中丸子1155",
        "postcode": "211-0012",
        "phone": "044-411-5559"
      }
    },
    {
      "type": "Feature",
      "geometry": {
        "type": "Point",
        "coordinates": [
          139.6555687876939,
          35.57585347622668
        ]
      },
      "properties": {
        "name": "中原保育園",
        "link": "http://www.city.kawasaki.jp/450/page/0000031250.html",
        "address": "中原区小杉町3-245（仮園舎）",
        "postcode": "211-0063",
        "phone": "044-733-3835"
      }
    },
    {
      "type": "Feature",
      "geometry": {
        "type": "Point",
        "coordinates": [
          139.63895509999998,
          35.5774876
        ]
      },
      "properties": {
        "name": "下小田中保育園",
        "link": "http://www.city.kawasaki.jp/450/page/0000031235.html",
        "address": "中原区下小田中4-4-17",
        "postcode": "211-0041",
        "phone": "044-788-5890"
      }
    },
    {
      "type": "Feature",
      "geometry": {
        "type": "Point",
        "coordinates": [
          139.63900977808004,
          35.59214905042787
        ]
      },
      "properties": {
        "name": "西宮内保育園",
        "link": "http://www.city.kawasaki.jp/450/page/0000031032.html",
        "address": "中原区宮内1-21-27（仮園舎）",
        "postcode": "211-0051",
        "phone": "044-755-6266"
      }
    },
    {
      "type": "Feature",
      "geometry": {
        "type": "Point",
        "coordinates": [
          139.6354162,
          35.5819258
        ]
      },
      "properties": {
        "name": "さくらの木保育園",
        "link": "http://www.city.kawasaki.jp/450/page/0000030989.html",
        "address": "中原区下小田中1-11-1",
        "postcode": "211-0041",
        "phone": "044-766-6001"
      }
    },
    {
      "type": "Feature",
      "geometry": {
        "type": "Point",
        "coordinates": [
          139.6354162,
          35.5819258
        ]
      },
      "properties": {
        "name": "さくらの木乳児保育園",
        "link": "http://www.city.kawasaki.jp/450/page/0000030983.html",
        "address": "中原区下小田中1-11-1",
        "postcode": "211-0041",
        "phone": "044-751-9038"
      }
    },
    {
      "type": "Feature",
      "geometry": {
        "type": "Point",
        "coordinates": [
          139.6780397877544,
          35.55468801192218
        ]
      },
      "properties": {
        "name": "にじいろ保育園南平間",
        "link": "http://www.city.kawasaki.jp/450/page/0000030978.html",
        "address": "中原区上平間1183",
        "postcode": "211-0013",
        "phone": "044-511-0010"
      }
    },
    {
      "type": "Feature",
      "geometry": {
        "type": "Point",
        "coordinates": [
          139.6694750748695,
          35.5766866738872
        ]
      },
      "properties": {
        "name": "多摩保育園",
        "link": "http://www.city.kawasaki.jp/450/page/0000030957.html",
        "address": "中原区上丸子山王町2-1337",
        "postcode": "211-0002",
        "phone": "044-411-1122"
      }
    },
    {
      "type": "Feature",
      "geometry": {
        "type": "Point",
        "coordinates": [
          139.65358477791756,
          35.56947279694772
        ]
      },
      "properties": {
        "name": "新日本保育園",
        "link": "http://www.city.kawasaki.jp/450/page/0000030839.html",
        "address": "中原区木月伊勢町3-3",
        "postcode": "211-0032",
        "phone": "044-722-3203"
      }
    },
    {
      "type": "Feature",
      "geometry": {
        "type": "Point",
        "coordinates": [
          139.64335992211696,
          35.56638716886139
        ]
      },
      "properties": {
        "name": "長寿保育園",
        "link": "http://www.city.kawasaki.jp/450/page/0000030810.html",
        "address": "中原区井田中ノ町12-20",
        "postcode": "211-0034",
        "phone": "044-777-5403"
      }
    },
    {
      "type": "Feature",
      "geometry": {
        "type": "Point",
        "coordinates": [
          139.6552187533762,
          35.558668350800374
        ]
      },
      "properties": {
        "name": "木月保育園",
        "link": "http://www.city.kawasaki.jp/450/page/0000030797.html",
        "address": "中原区木月4-42-14",
        "postcode": "211-0025",
        "phone": "044-433-1958"
      }
    },
    {
      "type": "Feature",
      "geometry": {
        "type": "Point",
        "coordinates": [
          139.6428669711735,
          35.563200077048236
        ]
      },
      "properties": {
        "name": "井田保育園",
        "link": "http://www.city.kawasaki.jp/450/page/0000030779.html",
        "address": "中原区井田1-26-33",
        "postcode": "211-0035",
        "phone": "044-751-1637"
      }
    },
    {
      "type": "Feature",
      "geometry": {
        "type": "Point",
        "coordinates": [
          139.65758085765967,
          35.570931570214974
        ]
      },
      "properties": {
        "name": "すみれ保育園",
        "link": "http://www.city.kawasaki.jp/450/page/0000030762.html",
        "address": "中原区木月住吉町1-12",
        "postcode": "211-0021",
        "phone": "044-430-5544"
      }
    },
    {
      "type": "Feature",
      "geometry": {
        "type": "Point",
        "coordinates": [
          139.6359935889594,
          35.5932072102265
        ]
      },
      "properties": {
        "name": "ももの里保育園",
        "link": "http://www.city.kawasaki.jp/450/page/0000030738.html",
        "address": "中原区宮内2-26-40",
        "postcode": "211-0051",
        "phone": "044-753-2980"
      }
    },
    {
      "type": "Feature",
      "geometry": {
        "type": "Point",
        "coordinates": [
          139.66215056071388,
          35.57834309053344
        ]
      },
      "properties": {
        "name": "こすぎっこ保育園",
        "link": "http://www.city.kawasaki.jp/450/page/0000030718.html",
        "address": "中原区新丸子東2-901",
        "postcode": "211-0004",
        "phone": "044-411-6594"
      }
    },
    {
      "type": "Feature",
      "geometry": {
        "type": "Point",
        "coordinates": [
          139.65589648098234,
          35.56393077799
        ]
      },
      "properties": {
        "name": "わおわお元住吉保育園",
        "link": "http://www.city.kawasaki.jp/450/page/0000030701.html",
        "address": "中原区木月2-17-1",
        "postcode": "211-0025",
        "phone": "044-431-1180"
      }
    },
    {
      "type": "Feature",
      "geometry": {
        "type": "Point",
        "coordinates": [
          139.66050004572574,
          35.58090111515903
        ]
      },
      "properties": {
        "name": "まるこ保育園",
        "link": "http://www.city.kawasaki.jp/450/page/0000030695.html",
        "address": "中原区新丸子町726-5　ソレイユ倶楽部2",
        "postcode": "211-0005",
        "phone": "044-733-8550"
      }
    },
    {
      "type": "Feature",
      "geometry": {
        "type": "Point",
        "coordinates": [
          139.63373094537164,
          35.58747816344309
        ]
      },
      "properties": {
        "name": "アスク上小田中保育園",
        "link": "http://www.city.kawasaki.jp/450/page/0000030680.html",
        "address": "中原区上小田中3-25-29",
        "postcode": "211-0053",
        "phone": "044-740-5520"
      }
    },
    {
      "type": "Feature",
      "geometry": {
        "type": "Point",
        "coordinates": [
          139.66071230859936,
          35.574646511626746
        ]
      },
      "properties": {
        "name": "ベネッセ武蔵小杉保育園",
        "link": "http://www.city.kawasaki.jp/450/page/0000030655.html",
        "address": "中原区新丸子東3-1100-12 パークシティ武蔵小杉ミッドスカイタワー3F",
        "postcode": "211-0004",
        "phone": "044-430-0203"
      }
    },
    {
      "type": "Feature",
      "geometry": {
        "type": "Point",
        "coordinates": [
          139.65059715092002,
          35.57680551395561
        ]
      },
      "properties": {
        "name": "茶々いまい保育園",
        "link": "http://www.city.kawasaki.jp/450/page/0000030648.html",
        "address": "中原区今井仲町5-31",
        "postcode": "211-0065",
        "phone": "044-739-8551"
      }
    },
    {
      "type": "Feature",
      "geometry": {
        "type": "Point",
        "coordinates": [
          139.66089726169116,
          35.58136620846809
        ]
      },
      "properties": {
        "name": "アスク新丸子保育園",
        "link": "http://www.city.kawasaki.jp/450/page/0000030637.html",
        "address": "中原区新丸子町718　1・2F",
        "postcode": "211-0005",
        "phone": "044-738-0081"
      }
    },
    {
      "type": "Feature",
      "geometry": {
        "type": "Point",
        "coordinates": [
          139.65922891780366,
          35.56937626996594
        ]
      },
      "properties": {
        "name": "たんぽぽのはら保育園",
        "link": "http://www.city.kawasaki.jp/450/page/0000030632.html",
        "address": "中原区市ノ坪223-9",
        "postcode": "211-0016",
        "phone": "044-430-0143"
      }
    },
    {
      "type": "Feature",
      "geometry": {
        "type": "Point",
        "coordinates": [
          139.65299378896728,
          35.56742510573492
        ]
      },
      "properties": {
        "name": "すみよしのはら保育園",
        "link": "http://www.city.kawasaki.jp/450/page/0000030618.html",
        "address": "中原区木月祇園町17-2",
        "postcode": "211-0025",
        "phone": "044-411-6311"
      }
    },
    {
      "type": "Feature",
      "geometry": {
        "type": "Point",
        "coordinates": [
          139.64923715211887,
          35.56534615784021
        ]
      },
      "properties": {
        "name": "アスク元住吉保育園",
        "link": "http://www.city.kawasaki.jp/450/page/0000030603.html",
        "address": "中原区木月3-8-19",
        "postcode": "211-0025",
        "phone": "044-430-5613"
      }
    },
    {
      "type": "Feature",
      "geometry": {
        "type": "Point",
        "coordinates": [
          139.65484323371015,
          35.56818528631015
        ]
      },
      "properties": {
        "name": "らいらっく保育園",
        "link": "http://www.city.kawasaki.jp/450/page/0000030599.html",
        "address": "中原区木月伊勢町6-1",
        "postcode": "211-0032",
        "phone": "044-872-9888"
      }
    },
    {
      "type": "Feature",
      "geometry": {
        "type": "Point",
        "coordinates": [
          139.64202652209002,
          35.57208023419542
        ]
      },
      "properties": {
        "name": "アスク下小田中保育園",
        "link": "http://www.city.kawasaki.jp/450/page/0000030569.html",
        "address": "中原区下小田中3-29-16",
        "postcode": "211-0041",
        "phone": "044-741-1230"
      }
    },
    {
      "type": "Feature",
      "geometry": {
        "type": "Point",
        "coordinates": [
          139.65948838956191,
          35.578526971495265
        ]
      },
      "properties": {
        "name": "アスク武蔵小杉保育園",
        "link": "http://www.city.kawasaki.jp/450/page/0000030546.html",
        "address": "中原区小杉町1-526-5",
        "postcode": "211-0063",
        "phone": "044-739-4750"
      }
    },
    {
      "type": "Feature",
      "geometry": {
        "type": "Point",
        "coordinates": [
          139.63080954906692,
          35.58387328492823
        ]
      },
      "properties": {
        "name": "せせらぎ保育園",
        "link": "http://www.city.kawasaki.jp/450/page/0000030450.html",
        "address": "中原区新城1-14-7",
        "postcode": "211-0044",
        "phone": "044-752-6892"
      }
    },
    {
      "type": "Feature",
      "geometry": {
        "type": "Point",
        "coordinates": [
          139.6312322141247,
          35.58432394587711
        ]
      },
      "properties": {
        "name": "新城もりのこ保育園",
        "link": "http://www.city.kawasaki.jp/450/page/0000030463.html",
        "address": "中原区新城1-15-13",
        "postcode": "211-0044",
        "phone": "044-798-7015"
      }
    },
    {
      "type": "Feature",
      "geometry": {
        "type": "Point",
        "coordinates": [
          139.653029837632,
          35.57670430762973
        ]
      },
      "properties": {
        "name": "茶々なかまち保育園",
        "link": "http://www.city.kawasaki.jp/450/page/0000030487.html",
        "address": "中原区今井仲町2-28",
        "postcode": "211-0065",
        "phone": "044-738-0221"
      }
    },
    {
      "type": "Feature",
      "geometry": {
        "type": "Point",
        "coordinates": [
          139.66324684250736,
          35.57404292594878
        ]
      },
      "properties": {
        "name": "まなびの森保育園小杉",
        "link": "http://www.city.kawasaki.jp/450/page/0000030495.html",
        "address": "中原区新丸子東3-1241-4",
        "postcode": "211-0004",
        "phone": "044-422-5111"
      }
    },
    {
      "type": "Feature",
      "geometry": {
        "type": "Point",
        "coordinates": [
          139.6711157024517,
          35.56157568219468
        ]
      },
      "properties": {
        "name": "アスク平間保育園",
        "link": "http://www.city.kawasaki.jp/450/page/0000030501.html",
        "address": "中原区北谷町7　1・2階",
        "postcode": "211-0015",
        "phone": "044-542-6920"
      }
    },
    {
      "type": "Feature",
      "geometry": {
        "type": "Point",
        "coordinates": [
          139.6703557337309,
          35.56864287852269
        ]
      },
      "properties": {
        "name": "アスク向河原保育園",
        "link": "http://www.city.kawasaki.jp/450/page/0000030508.html",
        "address": "中原区中丸子364-1",
        "postcode": "211-0012",
        "phone": "044-431-3090"
      }
    },
    {
      "type": "Feature",
      "geometry": {
        "type": "Point",
        "coordinates": [
          139.6509492,
          35.5626624
        ]
      },
      "properties": {
        "name": "ベネッセ元住吉保育園",
        "link": "http://www.city.kawasaki.jp/450/page/0000030512.html",
        "address": "中原区木月3-35-20",
        "postcode": "211-0025",
        "phone": "044-431-3171"
      }
    },
    {
      "type": "Feature",
      "geometry": {
        "type": "Point",
        "coordinates": [
          139.66303140000002,
          35.564737
        ]
      },
      "properties": {
        "name": "小学館アカデミーかりやど保育園",
        "link": "http://www.city.kawasaki.jp/450/page/0000030520.html",
        "address": "中原区苅宿3-6",
        "postcode": "211-0022",
        "phone": "044-430-0180"
      }
    },
    {
      "type": "Feature",
      "geometry": {
        "type": "Point",
        "coordinates": [
          139.6458904288416,
          35.57432584050298
        ]
      },
      "properties": {
        "name": "武蔵中原もりのこ保育園",
        "link": "http://www.city.kawasaki.jp/450/page/0000030524.html",
        "address": "中原区下小田中3-7-20",
        "postcode": "211-0041",
        "phone": "044-777-5666"
      }
    },
    {
      "type": "Feature",
      "geometry": {
        "type": "Point",
        "coordinates": [
          139.63263980898432,
          35.58827554980709
        ]
      },
      "properties": {
        "name": "小学館アカデミーむさししんじょう保育園",
        "link": "http://www.city.kawasaki.jp/450/page/0000030527.html",
        "address": "中原区上小田中2-35-44",
        "postcode": "211-0053",
        "phone": "044-753-2007"
      }
    },
    {
      "type": "Feature",
      "geometry": {
        "type": "Point",
        "coordinates": [
          139.63678394386832,
          35.57888181660706
        ]
      },
      "properties": {
        "name": "アートチャイルドケア武蔵中原",
        "link": "http://www.city.kawasaki.jp/450/page/0000030531.html",
        "address": "中原区下小田中1-22-11",
        "postcode": "211-0041",
        "phone": "044-750-2123"
      }
    },
    {
      "type": "Feature",
      "geometry": {
        "type": "Point",
        "coordinates": [
          139.63279150185397,
          35.58347918819621
        ]
      },
      "properties": {
        "name": "まなびの森保育園新城",
        "link": "http://www.city.kawasaki.jp/450/page/0000030537.html",
        "address": "中原区新城中町6-20",
        "postcode": "211-0043",
        "phone": "044-777-3322"
      }
    },
    {
      "type": "Feature",
      "geometry": {
        "type": "Point",
        "coordinates": [
          139.67104248876785,
          35.56310979870229
        ]
      },
      "properties": {
        "name": "社会福祉法人長幼会玉川保育園",
        "link": "http://www.city.kawasaki.jp/450/page/0000101160.html",
        "address": "川崎市中原区北谷町61番地",
        "postcode": "211-0015",
        "phone": "044-555-1778"
      }
    },
    {
      "type": "Feature",
      "geometry": {
        "type": "Point",
        "coordinates": [
          139.6302703165338,
          35.59165172244365
        ]
      },
      "properties": {
        "name": "社会福祉法人けいわ会上小田中保育園",
        "link": "http://www.city.kawasaki.jp/450/page/0000060581.html",
        "address": "中原区上小田中1－28－25",
        "postcode": "211-0053",
        "phone": "044-982-9215"
      }
    },
    {
      "type": "Feature",
      "geometry": {
        "type": "Point",
        "coordinates": [
          139.6364616836716,
          35.583125905237864
        ]
      },
      "properties": {
        "name": "ぶれあ保育園・武蔵中原第二",
        "link": "http://www.city.kawasaki.jp/450/page/0000119779.html",
        "address": "中原区上小田中5-9-16",
        "postcode": "211-0053",
        "phone": "044-982-1174"
      }
    },
    {
      "type": "Feature",
      "geometry": {
        "type": "Point",
        "coordinates": [
          139.63570798293676,
          35.583287326421846
        ]
      },
      "properties": {
        "name": "ぶれあ保育園・武蔵中原",
        "link": "http://www.city.kawasaki.jp/450/page/0000098654.html",
        "address": "中原区上小田中5-9-13",
        "postcode": "211-0053",
        "phone": "044-948-9634"
      }
    },
    {
      "type": "Feature",
      "geometry": {
        "type": "Point",
        "coordinates": [
          139.63807229678835,
          35.5814089948615
        ]
      },
      "properties": {
        "name": "こころむさしなかはら保育園",
        "link": "http://www.city.kawasaki.jp/450/page/0000119691.html",
        "address": "中原区小田中1丁目7-23",
        "postcode": "211-0041",
        "phone": "044-982-1350"
      }
    },
    {
      "type": "Feature",
      "geometry": {
        "type": "Point",
        "coordinates": [
          139.6605197040442,
          35.562503121335794
        ]
      },
      "properties": {
        "name": "マリー保育園元住吉",
        "link": "http://www.city.kawasaki.jp/450/page/0000119669.html",
        "address": "中原区西加瀬2-2",
        "postcode": "211-0024",
        "phone": "044-948-8760"
      }
    },
    {
      "type": "Feature",
      "geometry": {
        "type": "Point",
        "coordinates": [
          139.65666651195716,
          35.581803805307416
        ]
      },
      "properties": {
        "name": "エクセレント武蔵小杉保育園",
        "link": "http://www.city.kawasaki.jp/450/page/0000119366.html",
        "address": "中原区新城1-10-17　JAセレサ川崎4階",
        "postcode": "211-0044",
        "phone": "044-733-5106"
      }
    },
    {
      "type": "Feature",
      "geometry": {
        "type": "Point",
        "coordinates": [
          139.6390743235873,
          35.57199566412167
        ]
      },
      "properties": {
        "name": "まなびの森保育園武蔵中原",
        "link": "http://www.city.kawasaki.jp/450/page/0000050747.html",
        "address": "中原区下小田中6-15-13",
        "postcode": "211-0041",
        "phone": "044-740-0404"
      }
    },
    {
      "type": "Feature",
      "geometry": {
        "type": "Point",
        "coordinates": [
          139.66489641719295,
          35.567730953145784
        ]
      },
      "properties": {
        "name": "小杉もりのこ保育園",
        "link": "http://www.city.kawasaki.jp/450/page/0000079042.html",
        "address": "中原区市ノ坪386-4",
        "postcode": "211-0016",
        "phone": "044-411-5855"
      }
    },
    {
      "type": "Feature",
      "geometry": {
        "type": "Point",
        "coordinates": [
          139.66900644478835,
          35.56720868685491
        ]
      },
      "properties": {
        "name": "まなびの森保育園向河原",
        "link": "http://www.city.kawasaki.jp/450/page/0000070717.html",
        "address": "中原区中丸子324－1",
        "postcode": "211-0012",
        "phone": "044-434-3365"
      }
    },
    {
      "type": "Feature",
      "geometry": {
        "type": "Point",
        "coordinates": [
          139.66501055070103,
          35.57731771394672
        ]
      },
      "properties": {
        "name": "そらいろ武蔵小杉保育園",
        "link": "http://www.city.kawasaki.jp/450/page/0000118871.html",
        "address": "中原区上丸子山王町1丁目1390番地白井ビル1F",
        "postcode": "211-0002",
        "phone": "044-948-6344"
      }
    },
    {
      "type": "Feature",
      "geometry": {
        "type": "Point",
        "coordinates": [
          139.64923598576428,
          35.56733496133336
        ]
      },
      "properties": {
        "name": "明日葉保育園元住吉園",
        "link": "http://www.city.kawasaki.jp/450/page/0000078623.html",
        "address": "中原区木月祇園町6‐31",
        "postcode": "211-0033",
        "phone": "044-982-3102"
      }
    },
    {
      "type": "Feature",
      "geometry": {
        "type": "Point",
        "coordinates": [
          139.66102385377224,
          35.57865305718054
        ]
      },
      "properties": {
        "name": "にじいろ保育園新丸子",
        "link": "http://www.city.kawasaki.jp/450/page/0000119159.html",
        "address": "中原区新丸子町964－3",
        "postcode": "211-0005",
        "phone": "044-948-7136"
      }
    },
    {
      "type": "Feature",
      "geometry": {
        "type": "Point",
        "coordinates": [
          139.65586019464135,
          35.577578842120744
        ]
      },
      "properties": {
        "name": "京進のほいくえんHOPPAパークシティ武蔵小杉",
        "link": "http://www.city.kawasaki.jp/450/page/0000108786.html",
        "address": "中原区小杉町二丁目228番地1　ザ・ガーデンタワーズウエスト2階",
        "postcode": "211-0063",
        "phone": "044-712-5071"
      }
    },
    {
      "type": "Feature",
      "geometry": {
        "type": "Point",
        "coordinates": [
          139.64356363335244,
          35.579882577245684
        ]
      },
      "properties": {
        "name": "にじいろ保育園武蔵中原",
        "link": "http://www.city.kawasaki.jp/450/page/0000089841.html",
        "address": "中原区上小田中6－18－4",
        "postcode": "211-0053",
        "phone": "044-789-5995"
      }
    },
    {
      "type": "Feature",
      "geometry": {
        "type": "Point",
        "coordinates": [
          139.6608504445169,
          35.580225546025005
        ]
      },
      "properties": {
        "name": "マミークラブ小杉",
        "link": "http://www.city.kawasaki.jp/450/page/0000109061.html",
        "address": "中原区新丸子744-2　ソレイユ倶楽部1",
        "postcode": "211-0005",
        "phone": "044-733-7743"
      }
    },
    {
      "type": "Feature",
      "geometry": {
        "type": "Point",
        "coordinates": [
          139.63614595838615,
          35.58026232487933
        ]
      },
      "properties": {
        "name": "ウパウパハウスノア",
        "link": "http://www.city.kawasaki.jp/450/page/0000108770.html",
        "address": "中原区下小田中1-13-14",
        "postcode": "211-0041",
        "phone": "044-750-0520"
      }
    },
    {
      "type": "Feature",
      "geometry": {
        "type": "Point",
        "coordinates": [
          139.65459855338682,
          35.574164076167165
        ]
      },
      "properties": {
        "name": "武蔵小杉コスモス保育園",
        "link": "http://www.city.kawasaki.jp/450/page/0000089029.html",
        "address": "中原区今井南町7-54",
        "postcode": "211-0064",
        "phone": "044-738-2886"
      }
    },
    {
      "type": "Feature",
      "geometry": {
        "type": "Point",
        "coordinates": [
          139.64170808448532,
          35.57085041878257
        ]
      },
      "properties": {
        "name": "レイモンド中原保育園",
        "link": "http://www.city.kawasaki.jp/450/page/0000109772.html",
        "address": "川崎市中原区井田杉山町7-33",
        "postcode": "211-0036",
        "phone": "044-750-9912"
      }
    },
    {
      "type": "Feature",
      "geometry": {
        "type": "Point",
        "coordinates": [
          139.6666383693313,
          35.57672465748938
        ]
      },
      "properties": {
        "name": "天才キッズクラブ楽学館武蔵小杉園",
        "link": "http://www.city.kawasaki.jp/450/page/0000108993.html",
        "address": "中原区下小田中1-13-14",
        "postcode": "211-0041",
        "phone": "044-982-9638"
      }
    },
    {
      "type": "Feature",
      "geometry": {
        "type": "Point",
        "coordinates": [
          139.64350650564768,
          35.583974212473436
        ]
      },
      "properties": {
        "name": "神地保育園",
        "link": "http://www.city.kawasaki.jp/450/page/0000109313.html",
        "address": "川崎市中原区上小田中6-34-36",
        "postcode": "211-0053",
        "phone": "044-948-4854"
      }
    },
    {
      "type": "Feature",
      "geometry": {
        "type": "Point",
        "coordinates": [
          139.6526147217284,
          35.58090628443418
        ]
      },
      "properties": {
        "name": "ピュアリー小杉御殿町保育園",
        "link": "http://www.city.kawasaki.jp/450/page/0000108781.html",
        "address": "中原区小杉御殿町2-119-14",
        "postcode": "211-0068",
        "phone": "044-819-5707"
      }
    },
    {
      "type": "Feature",
      "geometry": {
        "type": "Point",
        "coordinates": [
          139.64995128817398,
          35.576123320842235
        ]
      },
      "properties": {
        "name": "そらいろ今井西保育園",
        "link": "http://www.city.kawasaki.jp/450/page/0000108777.html",
        "address": "中原区今井西町3-15",
        "postcode": "211-0066",
        "phone": "044-455-7100"
      }
    },
    {
      "type": "Feature",
      "geometry": {
        "type": "Point",
        "coordinates": [
          139.66684115834732,
          35.578771686855134
        ]
      },
      "properties": {
        "name": "しらかし保育園",
        "link": "http://www.city.kawasaki.jp/450/page/0000108773.html",
        "address": "中原区上丸子山王町1-1454",
        "postcode": "211-0002",
        "phone": "044-982-3433"
      }
    },
    {
      "type": "Feature",
      "geometry": {
        "type": "Point",
        "coordinates": [
          139.63292250887616,
          35.5849765332373
        ]
      },
      "properties": {
        "name": "しらゆり新城保育園",
        "link": "http://www.city.kawasaki.jp/450/page/0000107579.html",
        "address": "神奈川県川崎市中原区新城中町1－18",
        "postcode": "211-0043",
        "phone": "044-948-9610"
      }
    },
    {
      "type": "Feature",
      "geometry": {
        "type": "Point",
        "coordinates": [
          139.65089465038548,
          35.56890449302016
        ]
      },
      "properties": {
        "name": "元住吉おおぞら保育園",
        "link": "http://www.city.kawasaki.jp/450/page/0000108730.html",
        "address": "神奈川県川崎市木月祇園町9-24",
        "postcode": "211-0033",
        "phone": "044-433-0005"
      }
    },
    {
      "type": "Feature",
      "geometry": {
        "type": "Point",
        "coordinates": [
          139.66161489486694,
          35.57841740610144
        ]
      },
      "properties": {
        "name": "小学館アカデミーしんまるこ保育園",
        "link": "http://www.city.kawasaki.jp/450/page/0000050732.html",
        "address": "中原区新丸子東2-902-1",
        "postcode": "211-0004",
        "phone": "044-431-3261"
      }
    },
    {
      "type": "Feature",
      "geometry": {
        "type": "Point",
        "coordinates": [
          139.66273211407483,
          35.56814583584404
        ]
      },
      "properties": {
        "name": "ベネッセ市ノ坪保育園",
        "link": "http://www.city.kawasaki.jp/450/page/0000048963.html",
        "address": "中原区市ノ坪375",
        "postcode": "211-0016",
        "phone": "044-431-3185"
      }
    },
    {
      "type": "Feature",
      "geometry": {
        "type": "Point",
        "coordinates": [
          139.65725898742676,
          35.57578211777163
        ]
      },
      "properties": {
        "name": "まめの木保育園",
        "link": "http://www.city.kawasaki.jp/450/page/0000070937.html",
        "address": "中原区小杉町3-1501　セントア武蔵小杉アA棟3",
        "postcode": "281-0565",
        "phone": "044-281-0565"
      }
    },
    {
      "type": "Feature",
      "geometry": {
        "type": "Point",
        "coordinates": [
          139.66069221496582,
          35.57676512535867
        ]
      },
      "properties": {
        "name": "わらべうた武蔵小杉保育園",
        "link": "http://www.city.kawasaki.jp/450/page/0000079413.html",
        "address": "中原区新丸子東2-924-65",
        "postcode": "211-0004",
        "phone": "044-948-9252"
      }
    },
    {
      "type": "Feature",
      "geometry": {
        "type": "Point",
        "coordinates": [
          139.653628934794,
          35.576677251228595
        ]
      },
      "properties": {
        "name": "第2武蔵小杉コスモス保育園",
        "link": "http://www.city.kawasaki.jp/450/page/0000098209.html",
        "address": "中原区今井仲町2-32",
        "postcode": "211-0065",
        "phone": "044-281-0661"
      }
    },
    {
      "type": "Feature",
      "geometry": {
        "type": "Point",
        "coordinates": [
          139.62919652815972,
          35.59182305279487
        ]
      },
      "properties": {
        "name": "まんまる保育園",
        "link": "http://www.city.kawasaki.jp/450/page/0000050737.html",
        "address": "中原区上小田中1-29-20",
        "postcode": "211-0053",
        "phone": "044-920-9700"
      }
    },
    {
      "type": "Feature",
      "geometry": {
        "type": "Point",
        "coordinates": [
          139.6472990779102,
          35.58497757383892
        ]
      },
      "properties": {
        "name": "みやうち保育園",
        "link": "http://www.city.kawasaki.jp/450/page/0000070861.html",
        "address": "中原区宮内4-13-14",
        "postcode": "211-0051",
        "phone": "044-982-3266"
      }
    },
    {
      "type": "Feature",
      "geometry": {
        "type": "Point",
        "coordinates": [
          139.64084446900947,
          35.58665615695954
        ]
      },
      "properties": {
        "name": "しらゆり中原保育園",
        "link": "http://www.city.kawasaki.jp/450/page/0000068968.html",
        "address": "川崎市中原区上小田中6-51-7 プランドール1～3階",
        "postcode": "211-0053",
        "phone": "044-982-9045"
      }
    },
    {
      "type": "Feature",
      "geometry": {
        "type": "Point",
        "coordinates": [
          139.65043949140434,
          35.57660461094996
        ]
      },
      "properties": {
        "name": "茶々むさしこすぎ保育園",
        "link": "http://www.city.kawasaki.jp/450/page/0000078306.html",
        "address": "中原区今井仲町5-25",
        "postcode": "211-0065",
        "phone": "044-739-8001"
      }
    },
    {
      "type": "Feature",
      "geometry": {
        "type": "Point",
        "coordinates": [
          139.6518192104538,
          35.56747385952222
        ]
      },
      "properties": {
        "name": "心花保育園",
        "link": "http://www.city.kawasaki.jp/450/page/0000079044.html",
        "address": "中原区木月祇園町15-6",
        "postcode": "211-0033",
        "phone": "044-433-0587"
      }
    },
    {
      "type": "Feature",
      "geometry": {
        "type": "Point",
        "coordinates": [
          139.6473655822119,
          35.57440545350444
        ]
      },
      "properties": {
        "name": "武蔵小杉おおぞら保育園",
        "link": "http://www.city.kawasaki.jp/450/page/0000089128.html",
        "address": "中原区今井西町11-12",
        "postcode": "211-0066",
        "phone": "044-299-8889"
      }
    },
    {
      "type": "Feature",
      "geometry": {
        "type": "Point",
        "coordinates": [
          139.64567831964283,
          35.59356755636024
        ]
      },
      "properties": {
        "name": "しらゆり宮内保育園",
        "link": "http://www.city.kawasaki.jp/450/page/0000089035.html",
        "address": "中原区宮内1-4-55",
        "postcode": "211-0051",
        "phone": "044-741-1050"
      }
    },
    {
      "type": "Feature",
      "geometry": {
        "type": "Point",
        "coordinates": [
          139.63159724539383,
          35.58506519663143
        ]
      },
      "properties": {
        "name": "エクセレント武蔵新城保育園",
        "link": "http://www.city.kawasaki.jp/450/page/0000089027.html",
        "address": "中原区新城1-10-17　JAセレサ川崎4階",
        "postcode": "211-0044",
        "phone": "044-755-5106"
      }
    },
    {
      "type": "Feature",
      "geometry": {
        "type": "Point",
        "coordinates": [
          139.65872011970725,
          35.573344730120645
        ]
      },
      "properties": {
        "name": "すこやか小杉保育園",
        "link": "http://www.city.kawasaki.jp/450/page/0000099416.html",
        "address": "川崎市中原区新丸子東3－447－2",
        "postcode": "211-0004",
        "phone": "044-750-9925"
      }
    },
    {
      "type": "Feature",
      "geometry": {
        "type": "Point",
        "coordinates": [
          139.65627990234637,
          35.56032816718876
        ]
      },
      "properties": {
        "name": "木月ほほえみ保育園",
        "link": "http://www.city.kawasaki.jp/450/page/0000099123.html",
        "address": "中原区木月4-42-14",
        "postcode": "211-0025",
        "phone": "044-948-4483"
      }
    },
    {
      "type": "Feature",
      "geometry": {
        "type": "Point",
        "coordinates": [
          139.65679429363223,
          35.56689185631643
        ]
      },
      "properties": {
        "name": "レイモンド元住吉保育園",
        "link": "http://www.city.kawasaki.jp/450/page/0000098248.html",
        "address": "神奈川県川崎市中原区木月住吉町2-24",
        "postcode": "211-0021",
        "phone": "044-789-5695"
      }
    },
    {
      "type": "Feature",
      "geometry": {
        "type": "Point",
        "coordinates": [
          139.64188779251182,
          35.58509783576341
        ]
      },
      "properties": {
        "name": "ひまわりほいくえん",
        "link": "http://www.city.kawasaki.jp/450/page/0000098647.html",
        "address": "神奈川県川崎市中原区上小田中6丁目45-54",
        "postcode": "211-0053",
        "phone": "044-711-6560"
      }
    },
    {
      "type": "Feature",
      "geometry": {
        "type": "Point",
        "coordinates": [
          139.6728887643083,
          35.56142710115578
        ]
      },
      "properties": {
        "name": "あいみー平間保育園",
        "link": "http://www.city.kawasaki.jp/450/page/0000098770.html",
        "address": "川崎市中原区北谷町21-2",
        "postcode": "211-0015",
        "phone": "044-211-6941"
      }
    },
    {
      "type": "Feature",
      "geometry": {
        "type": "Point",
        "coordinates": [
          139.66421986476288,
          35.56655907327449
        ]
      },
      "properties": {
        "name": "武蔵小杉雲母保育園",
        "link": "http://www.city.kawasaki.jp/450/page/0000098336.html",
        "address": "川崎市中原区市ノ坪363-7",
        "postcode": "211-0016",
        "phone": "044-455-8084"
      }
    },
    {
      "type": "Feature",
      "geometry": {
        "type": "Point",
        "coordinates": [
          139.65982129503735,
          35.5737547427608
        ]
      },
      "properties": {
        "name": "グローバルキッズ武蔵小杉園",
        "link": "http://www.city.kawasaki.jp/450/page/0000071121.html",
        "address": "中原区新丸子東3-1135-1　グランツリー武蔵小杉3F",
        "postcode": "211-0004",
        "phone": "044-433-7007"
      }
    },
    {
      "type": "Feature",
      "geometry": {
        "type": "Point",
        "coordinates": [
          139.65321207897048,
          35.560137117722086
        ]
      },
      "properties": {
        "name": "みらいく木月園",
        "link": "http://www.city.kawasaki.jp/450/page/0000098660.html",
        "address": "神奈川県川崎市中原区木月4-28-2",
        "postcode": "211-0025",
        "phone": "044-750-7191"
      }
    },
    {
      "type": "Feature",
      "geometry": {
        "type": "Point",
        "coordinates": [
          139.67330987113942,
          35.56181985249042
        ]
      },
      "properties": {
        "name": "ニチイキッズひらま保育園",
        "link": "http://www.city.kawasaki.jp/450/page/0000098293.html",
        "address": "神奈川県川崎市中原区北谷町24-3",
        "postcode": "211-0015",
        "phone": "044-542-7577"
      }
    },
    {
      "type": "Feature",
      "geometry": {
        "type": "Point",
        "coordinates": [
          139.65490197751106,
          35.57284155439736
        ]
      },
      "properties": {
        "name": "アスク今井南保育園",
        "link": "http://www.city.kawasaki.jp/450/page/0000093300.html",
        "address": "中原区今井南町9-35",
        "postcode": "211-0064",
        "phone": "044-738-0370"
      }
    },
    {
      "type": "Feature",
      "geometry": {
        "type": "Point",
        "coordinates": [
          139.67019337883804,
          35.56358876991646
        ]
      },
      "properties": {
        "name": "ぶどうの実平間園",
        "link": "http://www.city.kawasaki.jp/450/page/0000078262.html",
        "address": "中原区北谷町693-10",
        "postcode": "211-0015",
        "phone": "044-540-3355"
      }
    },
    {
      "type": "Feature",
      "geometry": {
        "type": "Point",
        "coordinates": [
          139.66328172082896,
          35.569514349068385
        ]
      },
      "properties": {
        "name": "アイン武蔵小杉保育園",
        "link": "http://www.city.kawasaki.jp/450/page/0000061386.html",
        "address": "中原区中丸子1246-6",
        "postcode": "211-0012",
        "phone": "044-434-0551"
      }
    },
    {
      "type": "Feature",
      "geometry": {
        "type": "Point",
        "coordinates": [
          139.66048626026924,
          35.57289153344007
        ]
      },
      "properties": {
        "name": "ポポラー川崎武蔵小杉園",
        "link": "http://www.city.kawasaki.jp/450/page/0000079231.html",
        "address": "中原区市ノ坪449番地3　シティタワー武蔵小杉2階",
        "postcode": "211-0016",
        "phone": "044-431-8030"
      }
    },
    {
      "type": "Feature",
      "geometry": {
        "type": "Point",
        "coordinates": [
          139.6596495489319,
          35.575830008499054
        ]
      },
      "properties": {
        "name": "ポピンズナーサリースクール武蔵小杉",
        "link": "http://www.city.kawasaki.jp/450/page/0000050750.html",
        "address": "中原区小杉町3-472",
        "postcode": "211-0063",
        "phone": "044-738-2127"
      }
    },
    {
      "type": "Feature",
      "geometry": {
        "type": "Point",
        "coordinates": [
          139.65628977234303,
          35.581218806713274
        ]
      },
      "properties": {
        "name": "アイン武蔵小杉北保育園",
        "link": "http://www.city.kawasaki.jp/450/page/0000070841.html",
        "address": "中原区小杉町2-307-7",
        "postcode": "211-0063",
        "phone": "044-722-5588"
      }
    },
    {
      "type": "Feature",
      "geometry": {
        "type": "Point",
        "coordinates": [
          139.6535079201639,
          35.56190091899655
        ]
      },
      "properties": {
        "name": "アスク元住吉南保育園",
        "link": "http://www.city.kawasaki.jp/450/page/0000050746.html",
        "address": "中原区木月4-1-30",
        "postcode": "211-0025",
        "phone": "044-430-3230"
      }
    },
    {
      "type": "Feature",
      "geometry": {
        "type": "Point",
        "coordinates": [
          139.63315899999998,
          35.5677476
        ]
      },
      "properties": {
        "name": "蟹ヶ谷保育園",
        "link": "http://www.city.kawasaki.jp/450/page/0000030562.html",
        "address": "高津区蟹ヶ谷339",
        "postcode": "213-0025",
        "phone": "044-751-9040"
      }
    },
    {
      "type": "Feature",
      "geometry": {
        "type": "Point",
        "coordinates": [
          139.602077,
          35.602559
        ]
      },
      "properties": {
        "name": "津田山保育園",
        "link": "http://www.city.kawasaki.jp/450/page/0000030731.html",
        "address": "高津区下作延5-1-10",
        "postcode": "213-0033",
        "phone": "044-888-5291"
      }
    },
    {
      "type": "Feature",
      "geometry": {
        "type": "Point",
        "coordinates": [
          139.60630270000001,
          35.5832563
        ]
      },
      "properties": {
        "name": "梶ヶ谷保育園",
        "link": "http://www.city.kawasaki.jp/450/page/0000030774.html",
        "address": "高津区梶ヶ谷5-8-2",
        "postcode": "213-0015",
        "phone": "044-865-0355"
      }
    },
    {
      "type": "Feature",
      "geometry": {
        "type": "Point",
        "coordinates": [
          139.60566010000002,
          35.6004149
        ]
      },
      "properties": {
        "name": "緑の杜保育園",
        "link": "http://www.city.kawasaki.jp/450/page/0000030846.html",
        "address": "高津区下作延2-6-3",
        "postcode": "213-0033",
        "phone": "044-866-6914"
      }
    },
    {
      "type": "Feature",
      "geometry": {
        "type": "Point",
        "coordinates": [
          139.62294816970825,
          35.59538763254869
        ]
      },
      "properties": {
        "name": "坂戸保育園",
        "link": "http://www.city.kawasaki.jp/450/page/0000030861.html",
        "address": "高津区坂戸3-7-21",
        "postcode": "213-0012",
        "phone": "044-811-6922"
      }
    },
    {
      "type": "Feature",
      "geometry": {
        "type": "Point",
        "coordinates": [
          139.614867,
          35.605078
        ]
      },
      "properties": {
        "name": "みぞのくち保育園",
        "link": "http://www.city.kawasaki.jp/450/page/0000030869.html",
        "address": "高津区溝口4-19-2",
        "postcode": "213-0001",
        "phone": "044-811-5081"
      }
    },
    {
      "type": "Feature",
      "geometry": {
        "type": "Point",
        "coordinates": [
          139.62046480000004,
          35.5842034
        ]
      },
      "properties": {
        "name": "たちばな中央保育園",
        "link": "http://www.city.kawasaki.jp/450/page/0000030876.html",
        "address": "高津区千年1300",
        "postcode": "213-0022",
        "phone": "044-753-2525"
      }
    },
    {
      "type": "Feature",
      "geometry": {
        "type": "Point",
        "coordinates": [
          139.60570400000006,
          35.6081081
        ]
      },
      "properties": {
        "name": "くじ保育園",
        "link": "http://www.city.kawasaki.jp/450/page/0000030880.html",
        "address": "高津区久地3-16-1",
        "postcode": "213-0032",
        "phone": "044-829-0150"
      }
    },
    {
      "type": "Feature",
      "geometry": {
        "type": "Point",
        "coordinates": [
          139.61885010000003,
          35.6012869
        ]
      },
      "properties": {
        "name": "二子保育園",
        "link": "http://www.city.kawasaki.jp/450/page/0000030890.html",
        "address": "高津区二子5-14-56",
        "postcode": "213-0002",
        "phone": "044-812-0088"
      }
    },
    {
      "type": "Feature",
      "geometry": {
        "type": "Point",
        "coordinates": [
          139.61960820000002,
          35.604592
        ]
      },
      "properties": {
        "name": "パレット保育園・高津",
        "link": "http://www.city.kawasaki.jp/450/page/0000030896.html",
        "address": "高津区二子2-13-5",
        "postcode": "213-0002",
        "phone": "044-829-0149"
      }
    },
    {
      "type": "Feature",
      "geometry": {
        "type": "Point",
        "coordinates": [
          139.6039614521423,
          35.59499109930299
        ]
      },
      "properties": {
        "name": "レッツ・びー梶ヶ谷保育園",
        "link": "http://www.city.kawasaki.jp/450/page/0000030900.html",
        "address": "高津区下作延2-35-1　スペースアメニティ梶ヶ谷1F",
        "postcode": "213-0033",
        "phone": "044-856-3721"
      }
    },
    {
      "type": "Feature",
      "geometry": {
        "type": "Point",
        "coordinates": [
          139.61550609999995,
          35.6007231
        ]
      },
      "properties": {
        "name": "YMCAたかつ保育園",
        "link": "http://www.city.kawasaki.jp/450/page/0000030907.html",
        "address": "高津区溝口1-19-1",
        "postcode": "213-0001",
        "phone": "044-281-7833"
      }
    },
    {
      "type": "Feature",
      "geometry": {
        "type": "Point",
        "coordinates": [
          139.62038831957787,
          35.59425476948073
        ]
      },
      "properties": {
        "name": "スターチャイルドKSPナーサリー",
        "link": "http://www.city.kawasaki.jp/450/page/0000030913.html",
        "address": "高津区坂戸3-2-1　かながわサイエンスパーク内",
        "postcode": "213-0012",
        "phone": "044-820-8331"
      }
    },
    {
      "type": "Feature",
      "geometry": {
        "type": "Point",
        "coordinates": [
          139.60135200000002,
          35.6037921
        ]
      },
      "properties": {
        "name": "アートチャイルドケア津田山きらら",
        "link": "http://www.city.kawasaki.jp/450/page/0000030921.html",
        "address": "高津区下作延6-6-21　アネックスK",
        "postcode": "213-0033",
        "phone": "044-281-8889"
      }
    },
    {
      "type": "Feature",
      "geometry": {
        "type": "Point",
        "coordinates": [
          139.60684279999998,
          35.6079081
        ]
      },
      "properties": {
        "name": "このはな保育園",
        "link": "http://www.city.kawasaki.jp/450/page/0000030931.html",
        "address": "高津区久地1-19-8　ガーデンパレス2階",
        "postcode": "213-0032",
        "phone": "044-811-8550"
      }
    },
    {
      "type": "Feature",
      "geometry": {
        "type": "Point",
        "coordinates": [
          139.61139230000003,
          35.6071527
        ]
      },
      "properties": {
        "name": "アスク高津保育園",
        "link": "http://www.city.kawasaki.jp/450/page/0000030938.html",
        "address": "高津区溝口6-23-16",
        "postcode": "213-0001",
        "phone": "044-829-4110"
      }
    },
    {
      "type": "Feature",
      "geometry": {
        "type": "Point",
        "coordinates": [
          139.61699750000002,
          35.6022562
        ]
      },
      "properties": {
        "name": "すこやか高津保育園",
        "link": "http://www.city.kawasaki.jp/450/page/0000030944.html",
        "address": "高津区二子5-1-5",
        "postcode": "213-0002",
        "phone": "044-833-8862"
      }
    },
    {
      "type": "Feature",
      "geometry": {
        "type": "Point",
        "coordinates": [
          139.61164869878726,
          35.60217609776771
        ]
      },
      "properties": {
        "name": "レッツ・びー溝の口保育園",
        "link": "http://www.city.kawasaki.jp/450/page/0000030950.html",
        "address": "高津区溝口2-16-6",
        "postcode": "213-0001",
        "phone": "044-811-7230"
      }
    },
    {
      "type": "Feature",
      "geometry": {
        "type": "Point",
        "coordinates": [
          139.6179139033631,
          35.594117476270604
        ]
      },
      "properties": {
        "name": "レッツ・びー久本保育園",
        "link": "http://www.city.kawasaki.jp/450/page/0000030859.html",
        "address": "高津区久本3-13-5",
        "postcode": "213-0011",
        "phone": "044-299-9472"
      }
    },
    {
      "type": "Feature",
      "geometry": {
        "type": "Point",
        "coordinates": [
          139.60706000000005,
          35.5995344
        ]
      },
      "properties": {
        "name": "アスク溝の口保育園",
        "link": "http://www.city.kawasaki.jp/450/page/0000031216.html",
        "address": "高津区下作延2-7-41",
        "postcode": "213-0033",
        "phone": "044-862-4187"
      }
    },
    {
      "type": "Feature",
      "geometry": {
        "type": "Point",
        "coordinates": [
          139.60648019999996,
          35.5869085
        ]
      },
      "properties": {
        "name": "アスクかじがや保育園",
        "link": "http://www.city.kawasaki.jp/450/page/0000031224.html",
        "address": "高津区梶ヶ谷3-12-6",
        "postcode": "213-0015",
        "phone": "044-871-7256"
      }
    },
    {
      "type": "Feature",
      "geometry": {
        "type": "Point",
        "coordinates": [
          139.6205370736801,
          35.58923247685368
        ]
      },
      "properties": {
        "name": "末長こぐま保育園",
        "link": "http://www.city.kawasaki.jp/450/page/0000031228.html",
        "address": "高津区末長1289-3",
        "postcode": "213-0013",
        "phone": "044-948-6615"
      }
    },
    {
      "type": "Feature",
      "geometry": {
        "type": "Point",
        "coordinates": [
          139.60121819999995,
          35.6108243
        ]
      },
      "properties": {
        "name": "うめのき保育園",
        "link": "http://www.city.kawasaki.jp/450/page/0000031236.html",
        "address": "高津区久地3-13-1",
        "postcode": "213-0032",
        "phone": "044-829-1830"
      }
    },
    {
      "type": "Feature",
      "geometry": {
        "type": "Point",
        "coordinates": [
          139.62774184477172,
          35.57880019902106
        ]
      },
      "properties": {
        "name": "レッツ・びー千年保育園",
        "link": "http://www.city.kawasaki.jp/450/page/0000031239.html",
        "address": "高津区千年717",
        "postcode": "213-0022",
        "phone": "044-863-7300"
      }
    },
    {
      "type": "Feature",
      "geometry": {
        "type": "Point",
        "coordinates": [
          139.62100910000004,
          35.5858531
        ]
      },
      "properties": {
        "name": "アスク武蔵新城保育園",
        "link": "http://www.city.kawasaki.jp/450/page/0000031242.html",
        "address": "高津区新作4-19-4",
        "postcode": "213-0014",
        "phone": "044-870-2133"
      }
    },
    {
      "type": "Feature",
      "geometry": {
        "type": "Point",
        "coordinates": [
          139.61513660000003,
          35.6029145
        ]
      },
      "properties": {
        "name": "アスク高津えきまえ保育園",
        "link": "http://www.city.kawasaki.jp/450/page/0000031244.html",
        "address": "高津区溝口3-8-17",
        "postcode": "213-0001",
        "phone": "044-833-5590"
      }
    },
    {
      "type": "Feature",
      "geometry": {
        "type": "Point",
        "coordinates": [
          139.6135865773339,
          35.60372577427805
        ]
      },
      "properties": {
        "name": "あいみー溝口保育園",
        "link": "http://www.city.kawasaki.jp/450/page/0000119652.html",
        "address": "高津区溝口3-14-4",
        "postcode": "213-0001",
        "phone": "044-455-6911"
      }
    },
    {
      "type": "Feature",
      "geometry": {
        "type": "Point",
        "coordinates": [
          139.6143577675307,
          35.603526376962115
        ]
      },
      "properties": {
        "name": "まなびの森保育園高津　分園",
        "link": "http://www.city.kawasaki.jp/450/page/0000050754.html",
        "address": "高津区溝口3-9-4",
        "postcode": "213-0001",
        "phone": "044-833-7558"
      }
    },
    {
      "type": "Feature",
      "geometry": {
        "type": "Point",
        "coordinates": [
          139.61889781235544,
          35.59987303393284
        ]
      },
      "properties": {
        "name": "溝の口もりのこ保育園",
        "link": "http://www.city.kawasaki.jp/450/page/0000065200.html",
        "address": "高津区坂戸1-552",
        "postcode": "213-0012",
        "phone": "044-813-5335"
      }
    },
    {
      "type": "Feature",
      "geometry": {
        "type": "Point",
        "coordinates": [
          139.6100617822126,
          35.606803785964914
        ]
      },
      "properties": {
        "name": "まなびの森保育園高津",
        "link": "http://www.city.kawasaki.jp/450/page/0000070585.html",
        "address": "高津区久地1-8-1",
        "postcode": "213-0032",
        "phone": "044-813-5520"
      }
    },
    {
      "type": "Feature",
      "geometry": {
        "type": "Point",
        "coordinates": [
          139.60625162848268,
          35.593786125337346
        ]
      },
      "properties": {
        "name": "まなびの森保育園梶ヶ谷",
        "link": "http://www.city.kawasaki.jp/450/page/0000117061.html",
        "address": "高津区末長1丁目9番1号　スタイリオ梶が谷3階",
        "postcode": "213-0013",
        "phone": "044-877-1900"
      }
    },
    {
      "type": "Feature",
      "geometry": {
        "type": "Point",
        "coordinates": [
          139.6234631538391,
          35.60146811844597
        ]
      },
      "properties": {
        "name": "ソラスト高津保育園",
        "link": "http://www.city.kawasaki.jp/450/page/0000089317.html",
        "address": "川崎市高津区二子3-31-3",
        "postcode": "213-0002",
        "phone": "044-299-6191"
      }
    },
    {
      "type": "Feature",
      "geometry": {
        "type": "Point",
        "coordinates": [
          139.62676121321078,
          35.58394974024422
        ]
      },
      "properties": {
        "name": "明日葉保育園武蔵新城園",
        "link": "http://www.city.kawasaki.jp/450/page/0000059716.html",
        "address": "高津区千年1026",
        "postcode": "213-0022",
        "phone": "044-740-9993"
      }
    },
    {
      "type": "Feature",
      "geometry": {
        "type": "Point",
        "coordinates": [
          139.6253163101226,
          35.582370984519564
        ]
      },
      "properties": {
        "name": "ちとせ山ゆり保育園",
        "link": "http://www.city.kawasaki.jp/450/page/0000115000.html",
        "address": "高津区千年970",
        "postcode": "213-0022",
        "phone": "044-755-9211"
      }
    },
    {
      "type": "Feature",
      "geometry": {
        "type": "Point",
        "coordinates": [
          139.6265080055218,
          35.588611654241525
        ]
      },
      "properties": {
        "name": "にじいろ保育園武蔵新城",
        "link": "http://www.city.kawasaki.jp/450/page/0000079020.html",
        "address": "神奈川県川崎市高津区新作5-17-18",
        "postcode": "213-0014",
        "phone": "044-982-0532"
      }
    },
    {
      "type": "Feature",
      "geometry": {
        "type": "Point",
        "coordinates": [
          139.61769349326394,
          35.60815052144801
        ]
      },
      "properties": {
        "name": "にじいろ保育園二子新地",
        "link": "http://www.city.kawasaki.jp/450/page/0000079463.html",
        "address": "神奈川県川崎市高津区二子1-17-5",
        "postcode": "213-0002",
        "phone": "044-712-3806"
      }
    },
    {
      "type": "Feature",
      "geometry": {
        "type": "Point",
        "coordinates": [
          139.62954921560672,
          35.574307102043576
        ]
      },
      "properties": {
        "name": "子母口わかば保育園",
        "link": "http://www.city.kawasaki.jp/450/page/0000059750.html",
        "address": "高津区子母口378",
        "postcode": "213-0023",
        "phone": "044-755-2271"
      }
    },
    {
      "type": "Feature",
      "geometry": {
        "type": "Point",
        "coordinates": [
          139.59282655579722,
          35.61068701098484
        ]
      },
      "properties": {
        "name": "ぶどうの実久地園",
        "link": "http://www.city.kawasaki.jp/450/page/0000089122.html",
        "address": "川崎市高津区久地4丁目24番5号新川屋センタービル4F",
        "postcode": "213-0032",
        "phone": "044-829-6550"
      }
    },
    {
      "type": "Feature",
      "geometry": {
        "type": "Point",
        "coordinates": [
          139.62032127202897,
          35.587772652510736
        ]
      },
      "properties": {
        "name": "ちゃいれっく新作保育園",
        "link": "http://www.city.kawasaki.jp/450/page/0000099154.html",
        "address": "高津区新作4-8-11",
        "postcode": "213-0014",
        "phone": "044-789-5665"
      }
    },
    {
      "type": "Feature",
      "geometry": {
        "type": "Point",
        "coordinates": [
          139.61433204243997,
          35.56649782411443
        ]
      },
      "properties": {
        "name": "野川ほのぼの保育園",
        "link": "http://www.city.kawasaki.jp/450/page/0000078947.html",
        "address": "川崎市高津区野川3906-4",
        "postcode": "213-0027",
        "phone": "044-750-8600"
      }
    },
    {
      "type": "Feature",
      "geometry": {
        "type": "Point",
        "coordinates": [
          139.62265220460142,
          35.59670306441803
        ]
      },
      "properties": {
        "name": "坂戸くれよん保育園",
        "link": "http://www.city.kawasaki.jp/450/page/0000109776.html",
        "address": "高津区坂戸1-17-20",
        "postcode": "213-0012",
        "phone": "044-299-9010"
      }
    },
    {
      "type": "Feature",
      "geometry": {
        "type": "Point",
        "coordinates": [
          139.6218582707235,
          35.608209499154846
        ]
      },
      "properties": {
        "name": "ファミリア・キッズ二子新地駅前園",
        "link": "http://www.city.kawasaki.jp/450/page/0000109766.html",
        "address": "高津区二子1-2-25",
        "postcode": "213-0002",
        "phone": "044-850-5070"
      }
    },
    {
      "type": "Feature",
      "geometry": {
        "type": "Point",
        "coordinates": [
          139.6351110654829,
          35.57117444851631
        ]
      },
      "properties": {
        "name": "川崎子母口雲母保育園",
        "link": "http://www.city.kawasaki.jp/450/page/0000109794.html",
        "address": "高津区子母口545-1",
        "postcode": "213-0023",
        "phone": "044-788-5588"
      }
    },
    {
      "type": "Feature",
      "geometry": {
        "type": "Point",
        "coordinates": [
          139.61284604844337,
          35.60852737664658
        ]
      },
      "properties": {
        "name": "西高津くさはな保育園",
        "link": "http://www.city.kawasaki.jp/450/page/0000109785.html",
        "address": "高津区久本3丁目9番9号",
        "postcode": "213-0011",
        "phone": "044-543-9311"
      }
    },
    {
      "type": "Feature",
      "geometry": {
        "type": "Point",
        "coordinates": [
          139.626774340868,
          35.6009501610514
        ]
      },
      "properties": {
        "name": "すこやか諏訪保育園",
        "link": "http://www.city.kawasaki.jp/450/page/0000076065.html",
        "address": "高津区諏訪3-20-15",
        "postcode": "213-0004",
        "phone": "044-712-5496"
      }
    },
    {
      "type": "Feature",
      "geometry": {
        "type": "Point",
        "coordinates": [
          139.6127389992832,
          35.60497772088983
        ]
      },
      "properties": {
        "name": "あいみー高津保育園",
        "link": "http://www.city.kawasaki.jp/450/page/0000078955.html",
        "address": "高津区溝口5-21-12",
        "postcode": "213-0001",
        "phone": "044-281-3883"
      }
    },
    {
      "type": "Feature",
      "geometry": {
        "type": "Point",
        "coordinates": [
          139.60322081903823,
          35.590062032375215
        ]
      },
      "properties": {
        "name": "ニチイキッズ梶ヶ谷保育園",
        "link": "http://www.city.kawasaki.jp/450/page/0000079439.html",
        "address": "高津区梶ヶ谷2－7－7",
        "postcode": "213-0015",
        "phone": "044-860-1031"
      }
    },
    {
      "type": "Feature",
      "geometry": {
        "type": "Point",
        "coordinates": [
          139.6192899626671,
          35.59736172250846
        ]
      },
      "properties": {
        "name": "にじのそら溝の口保育園",
        "link": "http://www.city.kawasaki.jp/450/page/0000099140.html",
        "address": "高津区久本3丁目9番9号",
        "postcode": "213-0011",
        "phone": "044-455-7620"
      }
    },
    {
      "type": "Feature",
      "geometry": {
        "type": "Point",
        "coordinates": [
          139.61323251291333,
          35.60339774225276
        ]
      },